stop_id,stop_code,stop_name,stop_desc,stop_lat,stop_lon,zone_id,stop_url,location_type,parent_station,stop_timezone,wheelchair_boarding,platform_code
3a7a,,Kwa Rwahama,,-1.952559,30.120783,,,,,,,
936d1650-82dc-4b35-8b4e-4a5608978387,,Kagugu B,,-1.912372,30.082796,,,,,,,
8yeg,,Avenue de la Justice & Rue KN 122,Gitega B,-1.960259,30.059671,,,,,,,
5a1bd58e-ade1-43e2-bce2-de9587796971,,FAWE 2 B,,-1.915601,30.071773,,,,,,,
k1cu,,Kisimenti,,-1.958046,30.111797,,,,,,,
3iso,,Kubitaro B,,-1.935516,30.060530,,,,,,,
cd5e6e6a-b71e-41d0-812e-0246b96c01d5,,FAWE B,,-1.913897,30.074882,,,,,,,
77d91dae-fb56-4816-83d9-5dc8b7339d19,,Kucyibanza 1 B,,-1.917651,30.056436,,,,,,,
bf8125a2-42fb-4d49-8e7f-127ea16a829f,,Cariyeri B,,-1.930193,30.056816,,,,,,,
36a51ad1-7780-4b39-8908-de5a2c162cd1,,Kagugu B,,-1.912369,30.082863,,,,,,,
422174b3-0411-4251-a7f4-d25cb4e49164,,Gakinjiro B,,-1.924992,30.070352,,,,,,,
f6cd31f7-2cfd-4802-b451-805ec3942d79,,Sopetrade,,-1.951731,30.074355,,,,,,,
baf1cc45-5b55-45d4-8c76-0ad5fd016839,,La Colombiere,,-1.945760,30.078407,,,,,,,
7dde7a38-0bb8-4238-b321-99c87ff66997,,Beausejour,,-1.958235,30.105028,,,,,,,
b4e8e7f8-674a-463f-96d1-539c87975405,,KIE,,-1.950966,30.122946,,,,,,,
bc96e5e2-c3da-437a-b530-df55047246d5,,Kukabindi,,-1.950208,30.083855,,,,,,,
9d38b01d-46ee-4115-9b1e-752f6352aaa7,,KBC,,-1.952388,30.092496,,,,,,,
c58eef96-9876-40a2-ad4a-b17230a5a0be,,RDB,,-1.951290,30.103271,,,,,,,
b66142c3-22cd-4ca7-a96a-6173b3911e7c,,Fawe,,-1.914055,30.074702,,,,,,,
aa69b56f-8c20-4366-89fa-f6792d12f5ca,,Kagugu 1,,-1.912482,30.082952,,,,,,,
0549062d-75df-4e4f-98c9-4d5da516a640,,Omega,,-1.907839,30.082722,,,,,,,
f1d919fb-71e7-4b9b-83ab-74608dcbf475,,Kubadive,,-1.930736,30.057353,,,,,,,
9edd7a9c-bf10-44a0-86e6-0f21c0947169,,Kumurenge,,-1.915676,30.062517,,,,,,,
819856fd-9f8d-43f6-9601-dc974d89a16d,,ULK B,,-1.922171,30.054100,,,,,,,
835baf07-8d5f-40d8-a7d5-b9c2642f878c,,Saint Famille,,-1.945484,30.065189,,,,,,,
2cca091a-5ac1-4734-a893-1ab16b5121f0,,Kimicanga,,-1.947171,30.075756,,,,,,,
7c03226a-f642-460f-bef6-0200aae8bdf6,,Gereza,,-1.940343,30.131137,,,,,,,
946574ea-df48-42de-8ae5-ef73061b37d2,,Kwa Mushimire,,-1.934961,30.134132,,,,,,,
03c7e071-c014-400f-961e-8085c0831d57,,Zindiro,,-1.929045,30.139608,,,,,,,
02d7b3df-490d-4109-92b1-a4c63cfbc58f,,Kumudugudu B,,-1.894064,30.079070,,,,,,,
c2eb1a38-7a98-4121-840a-407bfefcd742,,APAPEC B,,-1.921732,30.072926,,,,,,,
697ef05e-8fd5-43dd-93be-8ebad9604a17,,Kagugu Terminal,,-1.913246,30.087086,,,,,,,
357b8aef-9f9d-4330-9aad-e702a5f0a7a1,,Beritwari B,,-1.914564,30.066003,,,,,,,
697e84aa-10bf-4429-8dcc-2b5ea7cded39,,Kukibanza 2,,-1.916271,30.058435,,,,,,,
58c25750-aa26-42de-8bad-a5a6a567c4b8,,Caffè B,,-1.926335,30.055632,,,,,,,
00835301-8667-4880-bd02-f0cc637e7853,,Kariyeri B,,-1.930073,30.056721,,,,,,,
6ee4f870-c6a6-48de-aabb-5909adaa8614,,Kinamba B,,-1.931539,30.063089,,,,,,,
0eb0445d-bbc0-4f75-88f3-42e87e4fadf9,,Kukabindi B,,-1.949957,30.083807,,,,,,,
ac007fd0-f9cf-45e4-9f19-66fdc51981ba,,La Colombiere B,,-1.945613,30.078361,,,,,,,
ac2f730f-1529-446a-b937-536c60698ec3,,Kwa Rwahama B,,-1.953581,30.119247,,,,,,,
47127053-e479-4909-85bb-431e162f75d3,,Kimironko bus terminal,,-1.949596,30.125570,,,,,,,
o6sf,,Kuri Station,,-1.940299,30.173119,,,,,,,
f6fa8385-7e63-4b32-adaa-7ae2dc52ea98,,Gereza,,-1.940461,30.131199,,,,,,,
157ac6ad-235a-4833-bb37-875ff5ce41ff,,Kwa Mushimire,,-1.934914,30.134122,,,,,,,
eb80fdee-c45d-4832-b147-88bdf7bc78ab,,Rubangura B,,-1.943268,30.060920,,,,,,,
4dd55936-b16d-44e9-a511-c536d262c304,,Kwa Nayinzira,,-1.931264,30.141048,,,,,,,
577d15dc-8372-4165-a2d1-66670e825e16,,AZAM,,-1.930351,30.150924,,,,,,,
a233a55d-cd36-4d00-8ab7-4c81ad86bbd6,,Kukagari,,-1.926499,30.156153,,,,,,,
2981f8c8-53f5-4283-bdad-e38ed07fc46f,,Centre De Sante B,,-1.918514,30.111309,,,,,,,
9daecd8c-b5e6-4146-b637-d3a0ad602c22,,RDB B,,-1.949693,30.103440,,,,,,,
43085fe5-29c7-44ec-bbfd-7ec504442159,,Kukabindi B,,-1.949957,30.083807,,,,,,,
448fa2ee-4fbc-4532-a03d-ed93db1ef31e,,La Colombiere B,,-1.945614,30.078361,,,,,,,
09200eff-b52e-4576-abae-89786171e4ee,,Sacco B,,-1.916680,30.110209,,,,,,,
6f205ac8-c30a-4eb2-b31e-e6efd22b1ce1,,Kubitaro B,,-1.937534,30.059187,,,,,,,
c8d3c9d0-7f0b-4653-8e21-9104d3bf7ba5,,AZAM B,,-1.932486,30.145881,,,,,,,
413a0b9f-dabd-4e0a-94b0-62feda3d293c,,Kwa Nayinzira B,,-1.932174,30.142124,,,,,,,
b753b8fc-8f27-4b40-89c2-7cef2dea7d04,,Zindiro B,,-1.928740,30.138524,,,,,,,
a3b04181-e2e5-4df2-981a-50e8d380c25e,,Isangano B,,-1.942103,30.130354,,,,,,,
3527d34b-29f0-480a-a267-5e317f258038,,Four square B,,-1.943543,30.129647,,,,,,,
012078e2-513e-44f1-b37c-16ee6be48e9d,,Marine B,,-1.946659,30.128164,,,,,,,
ecae4508-63cb-499a-959a-650ec9f90dda,,Musave Terminal,,-1.926185,30.157644,,,,,,,
f51a1b06-8473-4e93-969d-c3ca4eade43c,,Kwa Mushimire B,,-1.936506,30.132920,,,,,,,
89dbcc7a-3018-4a6f-b5cb-37163995a6da,,Isangano B,,-1.942131,30.130276,,,,,,,
45d4166a-80e1-4485-a725-78fb648af3a7,,Four Square B,,-1.943500,30.129627,,,,,,,
523f7a82-199d-4e86-9ca6-94ff949f16d2,,Marine B,,-1.946649,30.128128,,,,,,,
668f8fba-6c28-4c69-9520-3277b00e212f,,Gishushu B,,-1.953082,30.101434,,,,,,,
0d68c364-b932-401c-9bc1-b3a75eae8805,,University of Kigali B,,-1.951599,30.094088,,,,,,,
2461bf84-a952-4037-9ed4-14920bcfd813,,Gakinjiro,,-1.926058,30.070641,,,,,,,
x434,,Test,,-1.985870,30.101732,,,,,,,
2a7cb4fa-80fd-42a7-b165-af46fc7dd35f,,Omega B,,-1.908573,30.083369,,,,,,,
8855299b-7c28-48d5-b5e7-1c3148c8eaef,,Kubadive,,-1.930765,30.057380,,,,,,,
7feee95b-7bdb-4a19-9da2-665017acaf1b,,Cafe,,-1.926030,30.055617,,,,,,,
839afbbe-4c41-4c3a-8a80-b57e2de11eca,,Batsinda,,-1.906118,30.080105,,,,,,,
1733449d-4f63-457e-a65b-033d4b0d22b3,,ULK,,-1.921274,30.054233,,,,,,,
e0e1a28c-5f38-4ab8-9e95-707bf134a870,,Kucyibanza 1,,-1.917652,30.056435,,,,,,,
0891c3f5-7a63-4676-8d99-beb57f53ea9b,,Kucyibanza 2,,-1.916271,30.058947,,,,,,,
933730a5-b5c8-47fc-9ff8-0bd63866c060,,Beritware,,-1.915302,30.068524,,,,,,,
cffc2221-32b6-4d5f-98a7-7e4f0c40a79a,,APAPEC,,-1.919903,30.072778,,,,,,,
10a17f41-2c99-4be9-a681-947e410521b6,,Giheka,,-1.900176,30.075937,,,,,,,
36399855-d74f-4ae6-97f3-c71fea34edbe,,Kumudugudu,,-1.896450,30.077635,,,,,,,
ca6641d7-6efb-45eb-83ed-8d83726bfd80,,Rufigiza,,-1.889166,30.088617,,,,,,,
48a63aa4-4cf6-4b33-880d-d248ab91c449,,Gasanze bus terminal,,-1.887708,30.090341,,,,,,,
a9cc12b0-3fa0-46c6-b9bd-f6423878def8,,Kagugu,,-1.912841,30.086511,,,,,,,
da29b6df-6a78-420e-81d9-3462066e9762,,Kumurenge,,-1.917454,30.090144,,,,,,,
a9989575-7f01-47ed-ae12-6eb2effc8a83,,Kurucyiko,,-1.931634,30.114561,,,,,,,
8ffc28e8-fe27-45c2-abea-f2457f7d46f6,,Kubadive,,-1.941532,30.122824,,,,,,,
3abedbe3-f444-4373-a4c5-778dc0728589,,Kumicanga B,,-1.992705,30.147180,,,,,,,
4fafc510-4949-4eb6-914d-dcedd98f99d1,,Apeka B,,-1.977586,30.151045,,,,,,,
cdc116b7-0702-40fd-8867-6b17ee17cebf,,Airport 1 B,,-1.961935,30.134783,,,,,,,
744da33e-0a37-4373-8a89-054925ce63fe,,RTDA,,-1.944561,30.090769,,,,,,,
9a8350ea-0b1a-422a-a8ea-b0fc82004298,,Kacyiru bus terminal,,-1.936693,30.081353,,,,,,,
b607636a-b50c-436e-89eb-427b4cf70f41,,Volta,,-1.961231,30.077133,,,,,,,
03977f50-3008-4382-ad38-b2294816ccb4,,RTUC,,-1.965850,30.103345,,,,,,,
4d45a240-668a-4533-92c6-a567721db2e3,,Cyamitsingi,,-1.962733,30.124617,,,,,,,
134b0be3-ecf1-4dc8-b445-b40d64a93ecf,,Airport 2,,-1.965122,30.140699,,,,,,,
0573222e-f8b1-4296-a9a7-198855aada48,,Kugasaraba,,-1.965979,30.146714,,,,,,,
77e437fd-7534-4c51-992b-8b25245662dd,,Victory,,-1.969378,30.155940,,,,,,,
ff30a0d7-2597-43f9-8681-831211c37005,,Secteur,,-1.972814,30.159889,,,,,,,
95c45334-ff34-4dea-90e6-97fca477f1ed,,Chez Lando B,,-1.959690,30.108119,,,,,,,
25c76f4e-f5e7-4e8f-ba67-f44942ba20eb,,MINAGRI B,,-1.941632,30.088699,,,,,,,
4176793f-d411-4cd2-86bf-14958c3a0841,,KBC B,,-1.952723,30.091362,,,,,,,
4650cbb5-e484-490d-90b3-5aa180f1766f,,Kimicanga B,,-1.947232,30.075606,,,,,,,
2a42f1c4-7a28-4e27-aed5-e1765dfdd427,,Kanombe Terminal,,-1.985908,30.179103,,,,,,,
0ea259d1-1adc-4866-933e-9bc3c0f785cf,,Cyamitsingi B,,-1.962537,30.124676,,,,,,,
1445726f-aca7-4f4a-a7aa-88b154436451,,Sonatube B,,-1.968132,30.101791,,,,,,,
5150fd99-d739-4e66-869e-1e90de964a9e,,Amasezerano B,,-1.968058,30.094200,,,,,,,
6e9cf80b-9634-45da-8c09-8b252fd788fb,,Kumazi B,,-1.957240,30.076040,,,,,,,
1417ce37-a525-4f0d-8286-64a291f2b020,,Museum B,,-1.978803,30.173568,,,,,,,
0c82cbfb-fe9d-4d61-874b-9dfc21461a47,,Kubitaro B,,-1.975795,30.166330,,,,,,,
599a3266-456d-4a53-a0aa-9047b69359d9,,Victory B,,-1.968298,30.153554,,,,,,,
f11010b6-5e0e-4c2b-ac6e-210dd6f3fb92,,Airport 2,,-1.964797,30.140531,,,,,,,
b6bdd777-c0f6-42cf-aa7b-9f48ab7e27e3,,Kukibuga B,,-1.963301,30.131114,,,,,,,
6484864e-3b07-448c-a5a4-4582d521ae3b,,Stade,,-1.956506,30.115228,,,,,,,
51c07311-2e69-4611-95a4-5d83b6c21022,,Kinyinya Bus terminal,,-1.913391,30.109343,,,,,,,
b4c5bf66-5fb9-4576-bc90-e67cba527dc7,,Saint Ignace B,,-1.937041,30.120393,,,,,,,
c12c0f8d-432b-425e-87c4-301a0d5c99a4,,Kurucyiko B,,-1.932994,30.116087,,,,,,,
9e68d800-70ea-4f24-82f0-c266b08d7cbf,,Kubitaro B,,-1.930177,30.113249,,,,,,,
ac3b5b10-ff65-4c93-bca4-b3e2f21a7f63,,Kukazu Kamazi B,,-1.924922,30.109175,,,,,,,
2388f542-f20e-4cdb-bf9b-0baa0e160861,,Kumurenge B,,-1.916497,30.089630,,,,,,,
d029fda7-6c46-4240-bd37-6d6c9a471708,,Kubadive,,-1.942135,30.123892,,,,,,,
aa5dfb63-1cc3-491a-8fd1-d7542f82c91b,,KIE B,,-1.951483,30.122016,,,,,,,
0bc68b01-dee4-4fa6-b192-90afa8d100c0,,RTDA B,,-1.944643,30.090846,,,,,,,
51b959e2-8fff-43ad-bf15-7a5396ea25c8,,Kukazu Kamazi B,,-1.929746,30.069397,,,,,,,
47b4261c-c6a6-4302-b213-50b2544dcab6,,Kwa Mutangana B,,-1.938447,30.048961,,,,,,,
9a26e7de-1c51-44da-b2a5-33c2ed8236c1,,Kumavase B,,-1.924012,30.104222,,,,,,,
50f42577-2282-4b9e-a259-42a550aa1ce4,,UTEXRWA B,,-1.927963,30.076033,,,,,,,
750367e3-0a92-4339-bd88-32d0edb67e61,,Kundagara B,,-1.936023,30.053279,,,,,,,
93b567d8-dd4c-45f5-9ec7-93a99a9f7ad3,,Horizon B,,-1.921009,30.112134,,,,,,,
c0881b81-2ef3-4642-82b3-d640a1f6206a,,Kubitaro B,,-1.928926,30.111632,,,,,,,
e62d2ccd-519d-40d3-ac15-fd3113650aa7,,Saint Ignaice B,,-1.937369,30.120534,,,,,,,
31db2190-fcc1-4e8a-a481-32cccf90c8b9,,Kinamba,,-1.933656,30.062090,,,,,,,
a6fa68e9-7002-4bfe-a4c7-0d3c68c4812a,,Kinamba 2,,-1.930437,30.065248,,,,,,,
8b2d3630-f99d-4b7d-83b0-df2df4ec32d3,,Ambassade,,-1.938194,30.086182,,,,,,,
2e7186e5-f458-494d-9efe-19ec68e49da8,,Kagugu 2,,-1.912399,30.086278,,,,,,,
e94531bb-a3ac-4e82-8a07-d56248e0b8e5,,Faisal B,,-1.945171,30.094154,,,,,,,
fccfcb31-efcf-4afe-be56-02e1c8aaaee3,,Kubitaro Kacyiru B,,-1.934332,30.076747,,,,,,,
3676f067-510e-4007-92a1-e4d1e39e47fc,,Ambasade,,-1.938518,30.086443,,,,,,,
14460f12-72b2-454a-a157-0bdf9ddf1a65,,ADPR,,-1.971801,30.132763,,,,,,,
07a8d9a0-9bc2-4f08-9d30-898951dce563,,Ninzi Hill,,-1.948810,30.092353,,,,,,,
0a2e8377-ad67-4cd9-87b9-0325f513271a,,MINIJUST,,-1.953659,30.097349,,,,,,,
ad050911-10c8-4c28-a970-9b5e3c3eb5a3,,Umuyenzi,,-1.960121,30.109883,,,,,,,
91a118ec-0c85-4df6-89b4-36c5cae885e6,,Kukibuga,,-1.963443,30.130889,,,,,,,
088dc742-df1f-4de4-879a-32c5adbcb36d,,ESA,,-1.979944,30.174700,,,,,,,
e50fc038-5f4a-4cf8-aed5-4256a75ea998,,Maman Sportif,,-1.931721,30.085651,,,,,,,
e6a8867d-d0ac-4a14-a722-0d972942bcf7,,Horizon,,-1.922705,30.110812,,,,,,,
1f86c460-c1a0-4e2f-8dd2-6a3845448aef,,Centre de Sante,,-1.918820,30.111129,,,,,,,
132f9824-3ef5-4041-882b-ae21aba44547,,Kacyiru,,-1.936610,30.081143,,,,,,,
f075ce79-e239-40be-951f-fde97805423c,,Meridien,,-1.944911,30.092314,,,,,,,
c496ff89-37bf-4124-82ff-8f8db619cf3b,,Gishushu,,-1.953871,30.102399,,,,,,,
f37e9f2a-2474-4b63-a8ba-1ac006807505,,Merdie,,-1.944909,30.092197,,,,,,,
46116b0a-1f15-4389-b938-62faff7f4898,,Faisal,,-1.945332,30.094270,,,,,,,
f198f3da-3c6f-44c7-9d66-597a210330ad,,Ninzi Hill,,-1.948813,30.092352,,,,,,,
1218dd2e-81da-4958-ac20-571bc2ccbfe1,,Kigali convention,,-1.952573,30.094775,,,,,,,
e2eef192-578b-498a-a193-d76ae1662297,,WASAC,,-1.970697,30.126555,,,,,,,
f422c47a-3c5a-4fef-936e-a33215438022,,Kumurenge,,-1.978938,30.133895,,,,,,,
1a69e216-5bd6-4192-be6a-7cbb6846fd1b,,Busanza bus terminal B,,-1.999245,30.145567,,,,,,,
50449156-b24b-4482-8f39-04afe05eb8cc,,Bingaro B,,-1.985723,30.149731,,,,,,,
8a91b121-bee3-45f4-92cc-88ab6d2735c7,,Itunda B,,-1.972098,30.144619,,,,,,,
07e04caa-12a9-4f0e-a430-705d16c4c94b,,Airforce B,,-1.970053,30.129938,,,,,,,
5cc3a55b-c2ee-43da-a839-f7a18703d31e,,Escalie B,,-1.970041,30.122358,,,,,,,
a0448e65-92ec-4d1b-a3ac-3ff3d535774d,,Remera Terminal,,-1.958702,30.119027,,,,,,,
ca55c8bd-90ad-45c5-a8b4-f2e62f02c5d1,,Kumucyo B,,-1.976445,30.134848,,,,,,,
d7c982e5-8930-468b-bc12-bd93a4dc410f,,Samuduha B,,-1.983185,30.132336,,,,,,,
9ba7628e-fbfe-4385-bf5c-e84af071780e,,Good Year,,-1.963319,30.108646,,,,,,,
3d52221e-d32f-4144-8415-77870a65fbab,,Airport B,,-1.971490,30.132362,,,,,,,
99b14b17-03c1-42e5-954e-1c384aabd102,,Beausejour B,,-1.957470,30.104712,,,,,,,
f87b84d1-ff14-4dfa-a9bc-e14f99a8321a,,Kukazu kamazi B,,-1.929672,30.069182,,,,,,,
4c6e2e53-8e69-4852-b94c-8e72070256a9,,Porfame B,,-1.959836,30.112245,,,,,,,
8b644872-6d2d-40f5-87b8-972eca1472a2,,Kukazu Kamazi B,,-1.929746,30.069397,,,,,,,
cfabccab-c8e6-48a7-aee9-c8522ed881f3,,Mugashyushya,,-1.977506,30.150278,,,,,,,
767e8b21-fbe7-4e03-a1a4-473eba871452,,Mutuelle,,-1.981878,30.149254,,,,,,,
9c63d63a-a853-4f62-b235-ad2f9ac29fdd,,Bingaro,,-1.986864,30.149171,,,,,,,
e94db1ce-e217-47ae-956d-a613e5a77018,,EPR,,-1.989496,30.147610,,,,,,,
895ea576-13ce-4a05-89fb-c766f329d663,,Radar,,-1.995067,30.146598,,,,,,,
c0889837-3351-49db-b22e-2342c02bd118,,Busanza bus terminal,,-1.999797,30.145399,,,,,,,
6c40200c-7364-4d1d-9387-75cfb87c7bdb,,La Parrise,,-1.955868,30.134268,,,,,,,
25bf6b9c-e50b-4e70-829a-f5964aeb4bf0,,Legacy,,-1.967072,30.163162,,,,,,,
96fa4942-9ad9-4141-acd0-850df763d4da,,Soresi,,-1.981884,30.215933,,,,,,,
38db5279-62b0-4c02-9e3d-f968f4246a42,,Nyanza Terminal,,-2.000959,30.091330,,,,,,,
4e11e6fa-f840-4321-b281-b9b660f49523,,Kumurenge,,-1.972320,30.092608,,,,,,,
e965d19d-b5dd-4ac1-a668-35f6ea45b9d5,,Kubadive,,-1.980136,30.101947,,,,,,,
b81198c8-9cb3-4f0f-9c4e-cb29f54bf1fa,,Kicukiro,,-1.983847,30.103971,,,,,,,
be9c6b74-b956-421c-87ea-616b34968be7,,Kwisoko,,-1.995460,30.114960,,,,,,,
b355c440-2d55-4dcc-9c16-4ec6a5b2e7bb,,Kwa Sarah,,-1.999167,30.117695,,,,,,,
37a0101f-43e9-4594-9671-f0746eaa7791,,NAEB,,-1.970864,30.086425,,,,,,,
98bf3a22-1c34-4dad-929b-7037cb805b63,,Kumurenge,,-1.977591,30.095454,,,,,,,
cc0c7d71-be64-428b-880e-d836af1fdb39,,Light,,-1.979984,30.097857,,,,,,,
683c28a8-3243-4b05-bef4-23fb54519f98,,Isonga,,-1.979361,30.099834,,,,,,,
61aef7a1-288a-4a06-a7f7-770e87b07b73,,Kubadive,,-1.980136,30.101947,,,,,,,
e83b3c66-0af2-4f56-9bf7-fa4ee4b5184d,,Kubadive,,-1.966436,30.120214,,,,,,,
66cb94a9-2ec3-462c-83b1-a080dd9da9e6,,Kumavaze,,-1.969667,30.109208,,,,,,,
33a42989-51d0-4a1c-8635-37591e1f5aaf,,Kwa Kabayija,,-1.978998,30.120452,,,,,,,
213a783a-a76b-4b21-bded-a68e4d0c8a0a,,Kukiliziya B,,-2.017038,30.107978,,,,,,,
7ebb05c3-872e-4c59-b9e9-0d6a6e4fd990,,Oryx B,,-2.013360,30.107777,,,,,,,
5981c122-c3d2-4a69-b166-3566c2e59e58,,Murinini B,,-2.008491,30.102615,,,,,,,
770caedc-09ab-48b2-9b7e-755806154520,,Kuri 12,,-1.954082,30.138128,,,,,,,
e0cb4481-82f1-4dee-9469-cea765e1b9f3,,Kukinamba B,,-1.936791,30.064223,,,,,,,
322d224d-ccfe-4b12-b339-ae9b7cbbc444,,MINAGRI B,,-1.976577,30.181093,,,,,,,
bd98a733-d95d-4b96-b006-d40a2b2c7063,,Kwa Rasta B,,-1.946624,30.073743,,,,,,,
89dcf760-3bfe-43c3-a5b8-375cd80c0fa6,,Kim B,,-1.954707,30.141324,,,,,,,
2e342f50-d276-48df-85b6-4670df58552e,,Kabuga Terminal,,-1.979014,30.223064,,,,,,,
639f0b43-1c2d-4eb5-9270-a472419441ca,,Bambino B,,-1.982176,30.211358,,,,,,,
f3dab96e-08d7-42d5-9778-f722a0c691e5,,FPR,,-1.983103,30.205285,,,,,,,
c848193f-b2ee-486a-b234-61a56d6c2571,,Mulindi B,,-1.970947,30.175338,,,,,,,
4844162b-8720-49e3-bb36-6299b4ef9818,,Kuri 15 B,,-1.965766,30.161460,,,,,,,
9cf2dbe2-820c-498c-8dfa-e658055c7169,,La Parrise B,,-1.956017,30.133820,,,,,,,
5f4f75f1-bc52-4251-9263-d03f031f91c8,,Gahanga Terminal,,-2.026552,30.104213,,,,,,,
d8eab526-ac34-44ac-9af6-5020c79a7212,,Minagri B,,-1.941113,30.088555,,,,,,,
68cd665b-9fdc-4d27-8548-5c5d1cfcb4a7,,Kubitaro Kacyiru B,,-1.934240,30.076616,,,,,,,
93ee6fe7-6499-4e30-8a2b-ed9dacc17226,,Good Year B,,-1.963019,30.108771,,,,,,,
e0844d00-ad5a-4c43-920d-0393abda0ca7,,KIM B,,-1.954707,30.141322,,,,,,,
7fa29a90-632c-41fb-ac30-8f839fee6f23,,Kigali parents B,,-1.953812,30.138816,,,,,,,
3d00445c-2617-41f2-a488-6b277fd1dee6,,Bibare B,,-1.949681,30.130706,,,,,,,
6a581206-1e02-4a24-aafd-9b19c590864e,,Secteur B,,-1.972528,30.159468,,,,,,,
e5352afc-da7f-4031-a451-38ab923adf37,,Kugasaraba B,,-1.966170,30.146265,,,,,,,
296ebf7a-03c8-43fa-a033-ecf97c8af86e,,Kwa Hadji,,-1.961182,30.154572,,,,,,,
323a1cf2-ff39-4d71-82b5-19dd948c3a0b,,Kwa Peace B,,-1.949947,30.133411,,,,,,,
5ced0ed8-4797-4d82-ad11-ac9123a43dac,,Kwa Piece,,-1.949931,30.133528,,,,,,,
3a7f0282-3fd2-400b-8829-93e2056c725e,,Masaka Terminal,,-1.997499,30.192041,,,,,,,
f76ab61a-6a8c-4a56-bec1-b63aadb42fc3,,Economic Zone,,-1.958033,30.150212,,,,,,,
bba59cf3-fcb3-470f-bcf8-9cb1d078e9e8,,MINAGRI,,-1.977301,30.181392,,,,,,,
92ba9606-6658-407a-885d-0412aca6c7b6,,Kumusigiti,,-1.990109,30.192711,,,,,,,
19de3298-153f-4632-9801-7fdbff8fa43a,,Kuri 12,,-1.954080,30.139046,,,,,,,
943d85cf-ca9b-4609-b94d-4dcb24f27ff6,,Kuri 19,,-1.985296,30.191136,,,,,,,
a559da43-1555-4e42-9d88-d7f242213f7b,,Kumusigiti B,,-1.989560,30.193439,,,,,,,
e27996f2-6419-46f1-9b99-44f663669ac9,,Kuri 19,,-1.985229,30.191412,,,,,,,
0657e0ca-6e69-4e10-9ee5-144d2a8e606f,,Umushumba mwiza B,,-1.961864,30.128630,,,,,,,
f38f1d31-5065-4ae7-9cec-963609666903,,Economic Zone B,,-1.958057,30.150486,,,,,,,
b6e5d5cb-c7bb-4db5-bec9-9c4a346a14a9,,Kigali Parents B,,-1.953329,30.138730,,,,,,,
d7ac34be-842b-432f-a8e8-09bfcd1c87c7,,Bibare,,-1.949858,30.130449,,,,,,,
f2f85624-c25e-4b42-96e9-e35bb3956823,,Police B,,-1.946607,30.172740,,,,,,,
fbdb8548-ddfb-4979-bd6a-0e20eee88710,,La Parrise B,,-1.956016,30.133821,,,,,,,
7c24a03d-ee1a-4f8a-b5f1-7b17a2e28376,,Tequila B,,-1.996463,30.119179,,,,,,,
98f92553-8c83-4a96-9abb-5d2aa02bc869,,Kumakara B,,-1.986655,30.105027,,,,,,,
f2ac3de8-c267-40ab-afb9-9b4e09724768,,Kubadive B,,-1.980399,30.102301,,,,,,,
01d06c18-ae2c-4e6a-ab95-895a7dc7a678,,Kwa Innocent B,,-1.973540,30.095301,,,,,,,
058efd32-5f66-4fd8-b2e3-a344960c88c1,,Nyabugogo bus terminal,,-1.940645,30.044477,,,,,,,
b4d60af6-099a-4afe-8c3c-283ed78a0dd3,,Tequila,,-1.996491,30.119104,,,,,,,
b338db5a-6542-4944-802b-0a03e05069a1,,Kumara B,,-1.986651,30.105020,,,,,,,
dfce743e-6202-47da-970f-06bb127bd9bd,,Camp Zaire,,-1.964072,30.078897,,,,,,,
50668d9f-658f-4490-aa40-382283745aeb,,Rwandex,,-1.969383,30.086747,,,,,,,
0b6eab1c-7f82-49e1-9fd8-42888bf352e8,,Kubitaro,,-1.935879,30.061735,,,,,,,
459b994a-768b-4b95-8d47-44f69c0766ef,,Mukanogo,,-1.955138,30.075028,,,,,,,
3a7c3857-8d91-4e6e-b803-41bcad231827,,Kwa Mironko,,-1.968018,30.083065,,,,,,,
0b20e69f-2526-4150-9002-1749f2166ef9,,Kumavase,,-1.969580,30.109039,,,,,,,
00f124fd-c7e4-4e1a-9797-4390f52a56cd,,Kwa Kabayija,,-1.978990,30.120448,,,,,,,
92ee93a6-7e73-4f16-bf30-0b0516893081,,Kumurenge,,-1.972286,30.092892,,,,,,,
e7552c9f-b461-40d9-bafe-f15dbad92f00,,Mount Kigali B,,-1.990184,30.099213,,,,,,,
8793c464-895a-4e35-a90a-03e50d540985,,Kicukiro,,-1.983891,30.104030,,,,,,,
e5f6590c-a409-4936-b52a-0960253ce206,,Kwisoko,,-1.995420,30.114958,,,,,,,
2b915460-9573-4e58-96a5-2d4fdc9796ee,,Kwa Sarah,,-1.999144,30.117686,,,,,,,
c278a9c6-7880-4a19-a0c6-817cf5c1fc23,,Umushumba mwiza,,-1.962611,30.126954,,,,,,,
3dc4c271-2aee-4c3c-970c-e8b17aca48d7,,Kwa Innocent,,-1.973530,30.095135,,,,,,,
a6f32227-6957-4800-88d4-9874c52a1380,,Kubadive B,,-1.980398,30.102302,,,,,,,
ce7e2b40-6afc-4303-898c-7230e757113f,,Isonga B,,-1.979553,30.099406,,,,,,,
05bc59cd-9f71-4dbb-a812-c4cdb8e99a34,,Gatenga B,,-1.976554,30.087524,,,,,,,
54006e8c-3a4f-45ed-9809-67bc08beb097,,NAEB B,,-1.971014,30.086681,,,,,,,
fcaad152-86fa-4d64-ad76-6c4c52acd788,,Kwa Mironko B,,-1.967395,30.082827,,,,,,,
485319a5-ddae-4ebf-82d7-dcd586d657c1,,Flurep B,,-1.964800,30.080290,,,,,,,
7dc739c4-3936-4165-88bc-24175a3f68d7,,Murinini,,-2.008444,30.103411,,,,,,,
a3763372-62a0-44df-9a0e-0add4afe89a3,,Kukiliziya,,-2.018407,30.107774,,,,,,,
63476b09-aa47-47b6-8121-215c4366379e,,Nobleza B,,-1.996492,30.096138,,,,,,,
318460d8-5f58-43e9-8231-bd8f8835d524,,Kuba des amis B,,-1.987964,30.101209,,,,,,,
2bbbf46c-a4a8-42e5-9e4d-5a6c6bb3075b,,Camp Zaire B,,-1.962363,30.077591,,,,,,,
3e8e6de3-cc01-42d1-bfe6-a991a7ada4af,,FPR,,-1.983836,30.204144,,,,,,,
929816fc-af3b-47a4-83cb-b7a6a85d2e7c,,Airport 1,,-1.962186,30.134380,,,,,,,
62684906-0d9a-4ff5-980d-73a4599e8a80,,Kubitaro,,-1.976341,30.167342,,,,,,,
35058447-7e44-484f-a15f-e62aa9ccd971,,Murindi,,-1.971313,30.175744,,,,,,,
0f4d7bc3-e7d8-4683-af6b-261b39b7b9d5,,Kukinamba B,,-1.936730,30.063975,,,,,,,
c12ee284-e666-498d-81bc-ac500fb67cdd,,Kundagara B,,-1.935911,30.053726,,,,,,,
764ba163-3cb4-4e07-a954-ed17f4971791,,Kuri 15,,-1.962850,30.163805,,,,,,,
d428335e-d626-44bf-8f76-2cb90649368e,,Karayesi,,-1.954627,30.166493,,,,,,,
b450412c-3d5f-4d6d-ab15-20e7da7c2a48,,Police,,-1.946889,30.172726,,,,,,,
722d7e57-28fa-43ac-94c4-be09a461e7e7,,Kuri Station,,-1.940271,30.173304,,,,,,,
b1c79eec-553e-4892-a005-081eb0311192,,Kugasima Terminal,,-1.934581,30.174110,,,,,,,
267ed60a-fb89-4bc7-934b-e320acf5f679,,Escallier,,-1.969700,30.121924,,,,,,,
d3201724-bfc3-441c-bb1c-bd54557ba704,,Quincaille,,-1.970261,30.130290,,,,,,,
c0db6ea4-32db-45f2-ae2e-0f5f602b10fb,,RAB,,-1.986690,30.131906,,,,,,,
916a6202-4e3a-43aa-a6bc-78cc57c9ca07,,Rubilizi Terminal,,-1.993974,30.132949,,,,,,,
0596a16d-7876-4cc4-a21b-6961699e8620,,RAB B,,-1.986627,30.132052,,,,,,,
ed8a8294-4e8b-4ad5-97c4-99051813b632,,Kumurenge B,,-1.979535,30.133632,,,,,,,
2c057b4a-6d9e-43eb-bbf2-6656c25f9ea6,,Rwandex B,,-1.969183,30.087046,,,,,,,
697486cf-6dd2-41d3-96f4-77831f1058d5,,Kumucyo,,-1.976174,30.134885,,,,,,,
06857253-6a9e-443e-bda8-ea64f4847a7c,,Merez  B,,-1.970477,30.077244,,,,,,,
1f6d2763-ba26-49ec-bbb2-98b1c82c1996,,Bwerankoli Terminal,,-1.990507,30.061443,,,,,,,
104a033d-4ae0-4479-9db4-994ebe240478,,Kabeza B,,-1.971029,30.124814,,,,,,,
94eef8ea-0f3d-4d13-ab07-dd9e32d5a675,,Saint Joseph bus terminal B,,-1.981914,30.117665,,,,,,,
59ab7bdc-53f5-4fdf-aa50-ad4029154f2b,,Centre de Sante B,,-1.975450,30.113910,,,,,,,
57c76b60-fdee-42f7-ad17-0bad137faa29,,San Francisco B,,-1.972510,30.107874,,,,,,,
de9dbc98-8f7d-4f31-a22b-867450296c58,,Kukiraro B,,-1.951285,30.075044,,,,,,,
9d74b5e4-73ea-4695-b501-dea8224e4b95,,Centre De Sante B,,-1.975462,30.113935,,,,,,,
47d74284-823c-4032-8a91-6c8cd73072e6,,San Francisco,,-1.972422,30.107783,,,,,,,
7141f84b-cbbd-407e-a959-195d0dce6a90,,Bralirwa B,,-1.968915,30.098102,,,,,,,
8130318c-65a7-412e-abaf-5d3e8cefc0b8,,Duterimbere B,,-1.950502,30.072777,,,,,,,
71c3c7e9-5e47-4005-a27d-662e63e1d39f,,Peage B,,-1.945862,30.066747,,,,,,,
e7fbacc7-bd73-4a6d-941f-c102d6148202,,Rwa Mushumba B,,-1.973715,29.979986,,,,,,,
25c13c5b-3b96-4d6e-b373-7e6674bac4df,,Ruyenzi B,,-1.967751,29.986225,,,,,,,
9f518c0a-12a4-43e4-a127-91ee5cec6339,,Ruriba B,,-1.960727,30.004238,,,,,,,
fcdc2f56-0231-4d8e-a849-3d4cfe0f9af7,,Bweramvura bus terminal,,-1.873459,30.048028,,,,,,,
66a02f04-38b7-4d7b-aaee-e0fbaab6803c,,Emono B,,-1.887335,30.050424,,,,,,,
c359d6ab-cd23-43d9-9478-244a9b88efeb,,Kumakawa B,,-1.890425,30.051098,,,,,,,
ded26c1f-c681-4b3d-a519-94fac1f48fd2,,Karuruma B,,-1.903747,30.050906,,,,,,,
587bc143-c116-411e-b6fd-224662b90578,,Kubigega B,,-1.917659,30.047774,,,,,,,
b6e31993-bb9f-4ad3-a78a-2be050c4b159,,Kanyonyomba B,,-1.922582,30.046785,,,,,,,
7e61aada-1d1a-4d13-8fd2-04881652b9d1,,Kwa Gerome B,,-1.925936,30.046332,,,,,,,
9f479a0d-efa4-460e-8db3-b3bd388c6f30,,Kukiliziya B,,-1.930973,30.045725,,,,,,,
44542782-3d99-4849-8945-bb3ac697ebff,,Round Point B,,-1.988876,30.068916,,,,,,,
e470ddc3-b496-499b-80b1-53c1a5f7a5a1,,Merez 2 B,,-1.974827,30.076815,,,,,,,
ef5bd950-4bf3-4302-ac6f-4254f035f9dc,,EcoleCongolaise B,,-1.966986,30.074879,,,,,,,
01f21c8e-d719-48e9-97cb-f6a70ddd51ca,,Rwampara B,,-1.969443,30.071380,,,,,,,
6dc3fbcc-cc17-4479-aa2e-b7d7e54e4e14,,Rugunga B,,-1.957979,30.071979,,,,,,,
f1e73648-e546-43d4-8ec0-637afea75fb7,,Kwa Rasta,,-1.946602,30.073839,,,,,,,
34cb9e16-888d-4936-89ee-d543cd4b587e,,Kumurenge B,,-1.991369,30.064858,,,,,,,
07e53215-eac7-4cc2-a311-ab4ff913b8bd,,Downtown Bus Terminal,,-1.943838,30.056937,,,,,,,
5729723e-26f1-4df2-99e7-376138e5063d,,Stade,,-1.956719,30.115012,,,,,,,
348d6457-fa0a-469e-9ffe-4af3b617d818,,Amasezerano,,-1.968194,30.094044,,,,,,,
b75114a4-bf9d-4f8f-8c9a-16a6322869e8,,Shell,,-1.969186,30.100288,,,,,,,
95f24464-fa99-44eb-bf50-ae92877711b6,,Alpha palace,,-1.960553,30.114523,,,,,,,
d0ba8761-0c95-4d83-be9b-4a000ad60b07,,Alimentation B,,-1.979583,30.076393,,,,,,,
bbb2fec2-15ca-486f-94f1-8a8de0623c69,,Kukadege B,,-1.967918,30.069036,,,,,,,
380ee1ee-d710-4b89-9ef7-799ba1a4c1ab,,Rujugiro B,,-1.985260,30.075430,,,,,,,
fd2d68ee-8218-484e-81e8-75c44f9cba92,,Merez 1,,-1.970608,30.077302,,,,,,,
8930b3ec-6c46-4427-9422-3ab6318c4b70,,Segeem B,,-1.966232,30.076723,,,,,,,
a4a094db-96aa-4f41-ae75-9c33c7851998,,Cercle  B,,-1.962306,30.069617,,,,,,,
e0887281-648e-4da4-bd17-763905beb039,,Kucyiraro,,-1.951323,30.075086,,,,,,,
df63ffc9-ec2f-4753-9a58-a7a8f81fcf2d,,Kanogo,,-1.955139,30.073849,,,,,,,
09402388-f6ff-4c71-a7b0-a025117fae75,,Ecole congolaise,,-1.967438,30.074572,,,,,,,
53d4eae3-b126-46c2-84d5-804ef497f46f,,Nyenyeri,,-1.971219,30.076857,,,,,,,
fb632927-1f91-4b7f-92a0-67c340f871e1,,Merez 2,,-1.975767,30.076480,,,,,,,
0b6dc8bc-35d7-4d91-a31d-a20555a58d73,,Alimentation,,-1.979806,30.076352,,,,,,,
02a94d70-8eb9-49d2-807d-7bc6a6aa94fa,,Kwa Rujugiro,,-1.984829,30.075517,,,,,,,
d94a747e-81d0-4b03-9837-8294b2aabd6c,,Yamaha B,,-1.939278,30.054540,,,,,,,
d6ac5ea6-f879-4b25-972e-a3297f87d750,,Police,,-1.939352,30.052508,,,,,,,
49d3ddb2-8b43-4a51-9c47-4cf9f25be0c1,,Icyerekezo,,-1.934802,30.045018,,,,,,,
41d66b01-4433-492a-b456-7be313baf852,,Kugataje,,-1.932068,30.045628,,,,,,,
579fc08e-a979-485e-a48f-3f8e87ce4e07,,Kanyunyumba,,-1.922083,30.047098,,,,,,,
57f10bd5-b1ee-46e3-8a11-1955ad2f37d9,,Kubigega,,-1.918924,30.047969,,,,,,,
0a29224b-74fa-429d-9b84-36a6c10fed36,,Karuruma,,-1.902899,30.053013,,,,,,,
24774842-c420-4ba6-9919-987e36e75aaf,,Kabuye,,-1.888336,30.067708,,,,,,,
43c2497c-bc5b-43b5-8597-5fa5d6937c43,,Kisimsnti,,-1.958006,30.111612,,,,,,,
c6f5cf50-c2af-4ce3-8cf1-0d4a63236275,,Gihara bus terminal,,-1.946692,29.960575,,,,,,,
93e1f821-42cf-4824-8acf-6bce0694e530,,Kumakawa B,,-1.949984,29.969974,,,,,,,
fd1a941e-8685-4f48-85b2-2ee99361b954,,Kwa musenyeri B,,-1.954233,29.980407,,,,,,,
e1704115-a223-435e-be89-25de0a85a34c,,Kundege B,,-1.965282,29.984408,,,,,,,
eee7e091-c2c4-4c4b-95f4-0dde10fecdab,,Ruyenzi B,,-1.967724,29.986274,,,,,,,
b37fd057-9471-4fdd-bdde-e2d8899a3567,,Kamuhanda B,,-1.963564,29.995000,,,,,,,
f318a319-1ab5-4d68-84ec-17cbb00a0f84,,Magerwa,,-1.909900,30.000559,,,,,,,
7fd7a18a-d08c-4ae4-bd60-826133f022fd,,Kumurenge B,,-1.917540,30.004873,,,,,,,
679c818e-d8ad-46ac-b628-28e7df252234,,Kugiticyinyoni B,,-1.948745,30.023471,,,,,,,
857002b5-e7e5-4f6a-a89e-477a758c7547,,Ruriba B,,-1.958911,30.004312,,,,,,,
6b53653a-9fd8-4d93-9793-6d91a093f63b,,Kwa Ndimbati B,,-1.960817,30.012596,,,,,,,
076cf0c0-f67b-4136-8a77-2cf5acac09f6,,Kumudugudu B,,-1.963274,30.021644,,,,,,,
7803dd95-cf57-444c-980e-0130a28aa2e4,,Karama B,,-1.961963,30.016215,,,,,,,
2e40a3f0-bef0-4bd1-b73c-2737cf0a99d3,,Meru B,,-1.959336,30.009672,,,,,,,
10bcbb9f-fa67-4b64-a117-a001c124272a,,Kwa Mironko,,-1.967838,30.081808,,,,,,,
db05aed7-a47e-4e0e-af49-27b5a2c5d8e8,,Segeem,,-1.966324,30.076638,,,,,,,
320caa84-c4c4-43b6-8f3e-31f893208ab8,,Sonatube B,,-1.968778,30.102955,,,,,,,
df231896-c222-4539-8456-89c52d72a0e8,,Simba B,,-1.975158,30.104381,,,,,,,
b297a84f-388f-43bb-86fd-79ba8e939bca,,Kicukiro B,,-1.980090,30.105057,,,,,,,
0922799b-45df-46c8-b877-20e37f5cc102,,Gatsata,,-1.936776,30.044537,,,,,,,
58521db1-d379-4820-8944-dc1170246c08,,Kanyonyomba,,-1.922073,30.047089,,,,,,,
83061dc7-d454-4a8d-a988-e15a9624cc3c,,Kubigega,,-1.918925,30.047954,,,,,,,
3c89e714-689c-4d18-a9ef-dd98a2d0da75,,Kirimanjaro,,-1.910068,30.047775,,,,,,,
60c58169-1d41-40a1-9f47-0a7d8fcef4fd,,Harmony,,-1.896460,30.057382,,,,,,,
4215866f-8ca7-4ef0-8421-7954909fc4ea,,Mwikorosi,,-1.878896,30.054827,,,,,,,
11dc7ee9-761c-4340-88a2-79dddd76be80,,Bweramvura bus terminal,,-1.873596,30.048050,,,,,,,
07cd81cd-ebaa-4592-b641-fcbb9cb9a2db,,Magerwa,,-1.975885,30.086044,,,,,,,
a7fba89b-d453-41cc-80d0-fe833359ade7,,Gatenga,,-1.976378,30.091776,,,,,,,
a1a2d700-8b12-44fd-99f9-abfd8c778cc0,,Isonga,,-1.979298,30.099863,,,,,,,
22e2d9e7-f98c-4f8c-93df-2bb873e2dd2a,,Nyacyonga Terminal,,-1.866514,30.086834,,,,,,,
8d8779b6-c369-465b-86fa-e393f63804fb,,Mount Kigali University,,-1.990076,30.099058,,,,,,,
5029f6f7-759d-41db-9828-fabc4cfdb6fe,,Kugiticyinyoni,,-1.948185,30.024520,,,,,,,
dfadc72d-2f0b-4a1a-9164-5e723d55a043,,Kamuhanda,,-1.963310,29.995924,,,,,,,
c0de3087-1dee-4e1b-a3ed-cbf015e33b38,,Ruyenzi,,-1.966973,29.985349,,,,,,,
3be4d2d3-4b99-4d7c-9a8f-6f14704bb424,,Kwa Musenyeri,,-1.954204,29.980450,,,,,,,
5fa71a48-40e5-4b3a-97ef-155fd7de62ee,,Kumakawa,,-1.949854,29.969716,,,,,,,
b85d72a5-d9ed-4626-a64f-374d48669585,,Kucyiyenzi,,-1.941309,30.029556,,,,,,,
2e723888-fc3e-4828-a266-53039055a9d5,,Nyamweru,,-1.924402,30.010083,,,,,,,
6d96643f-1b72-4c08-884f-5210969d0598,,Kumurenge,,-1.916533,30.004312,,,,,,,
7bc5ae3a-f96e-4e33-ac27-0ce817632925,,Magerwa,,-1.900438,29.994042,,,,,,,
3a4957aa-f843-4a53-bd4a-22bd49426571,,Ruyenzi,,-1.967577,29.984715,,,,,,,
58fdb615-6ca3-4fb9-8659-2f61382e6138,,Rossignol,,-1.971797,29.980553,,,,,,,
8e26bbcc-ad01-462a-9ae8-4b11cb3c90d9,,Kigali Gas,,-1.939077,30.067026,,,,,,,
62b8ba96-31f8-4f0a-af5c-69f1cfa50e5b,,Kwa Rasta,,-1.949034,30.074486,,,,,,,
0c59b3d4-29ed-4434-9d5b-e0c74ab38c56,,Rwampara,,-1.969222,30.072483,,,,,,,
e99afcd6-66e4-4475-b3e0-5035968bed04,,Nyenyeri,,-1.971518,30.076675,,,,,,,
89307b9c-a0fb-49c7-9a7d-068dd0f9a13f,,Petit Prince,,-1.988236,30.070936,,,,,,,
ddfb1e58-bc2c-4376-a1b1-1874a8f9a1b9,,Kanogo,,-1.955262,30.074946,,,,,,,
a220e066-1eef-40b4-98e8-047bcb754e42,,Cercle,,-1.961116,30.069752,,,,,,,
3a57452a-5a63-4c08-91ea-11a94a379cd2,,Kumusigiti,,-1.968673,30.067468,,,,,,,
698528f1-eef2-4525-8132-af74163a65a3,,Rwampara Kumashuri,,-1.968676,30.063719,,,,,,,
3f9efff5-3153-483d-890e-440b16670d9f,,Karekare,,-1.973532,30.060031,,,,,,,
d848569a-b946-45e4-815f-a165cd02dd37,,Cyumbati Terminal,,-1.982727,30.058996,,,,,,,
579b74ed-c38a-4475-b9be-74c443b467f1,,Ruriba,,-1.960482,30.004753,,,,,,,
be459e8d-98ae-4e22-98d5-57ebe3732359,,Meru,,-1.959295,30.008874,,,,,,,
5a460911-fdff-4659-ba5f-4397b33ab49a,,ADPR,,-1.961378,30.014006,,,,,,,
56baaafb-c018-430c-ac2e-5ced8cdc3425,,Kumudugudu,,-1.963255,30.020816,,,,,,,
91804b92-d400-44e5-a591-049de04d3785,,Kugataje,,-1.931973,30.045665,,,,,,,
7aa8f6a1-ea81-4c92-a611-ba5217e2fd74,,Kwa Gerome,,-1.925436,30.046289,,,,,,,
1041a5cb-cd29-4e5b-be85-e06dbd37d0f6,,Karuruma,,-1.902900,30.053014,,,,,,,
a3dbe4b1-cbff-4683-8f3b-051645cee538,,Kabuye B,,-1.886450,30.071267,,,,,,,
2b49b5dc-8014-496e-b6fc-b4791a6a32b1,,Kilimanjaro B,,-1.911608,30.047618,,,,,,,
50d1fb30-1195-4dd7-851d-7fe2260e1946,,Kugataje B,,-1.934669,30.044980,,,,,,,
3b062d6a-f2ff-4a53-9cd0-25a2a9cf020c,,Isonga B,,-1.979604,30.099438,,,,,,,
07327a13-c158-4f2b-b378-55c7c9974529,,Kumurenge B,,-1.977382,30.095390,,,,,,,
ae948ad9-af05-4bbe-844b-091c9071fc55,,Expo B,,-1.975621,30.085858,,,,,,,
ce3331fb-4ee9-475e-93ab-1bb3f3a06a82,,Station B,,-1.941001,30.069305,,,,,,,
54601cab-b6b0-4321-8f9f-6d1ea13f98c4,,Kicukiro,,-1.979417,30.105313,,,,,,,
28d2725e-5b45-4d35-bcc3-6d53375635e7,,Simba,,-1.972864,30.103829,,,,,,,
feaeff6e-8fd2-40ff-a896-b75e5bf83077,,Kumurenge,,-1.954799,30.117973,,,,,,,
a1698e25-4fac-48d4-a1dc-2bbf71c679d2,,Kicukiro,,-1.979335,30.105387,,,,,,,
c580a304-6bf2-4f38-af23-783be3730f5f,,Simba,,-1.972769,30.103819,,,,,,,
6e00cced-29e9-4ab5-86bc-09ce0d145206,,Prince House,,-1.960170,30.115265,,,,,,,
15bc86cf-ca0d-43d4-9951-427c1b01f19f,,Kwa Mironko,,-1.967702,30.081706,,,,,,,
ee617a9f-8d2f-46b3-9add-ed550f35a432,,Legacy B,,-1.960785,30.113329,,,,,,,
b293a631-b19e-45a1-ad89-b547f10e19ab,,Sonatube B,,-1.968893,30.102961,,,,,,,
7bade6dc-f571-436d-9463-63fec4d39b8e,,Simba B,,-1.974082,30.103957,,,,,,,
2deaa9bf-8bd6-423d-be70-46466c3a8b55,,Kicukiro B,,-1.980132,30.105006,,,,,,,
a494e6b0-ec71-4d7c-aee2-cb62ea46c5ef,,Nobleza B,,-1.997573,30.095175,,,,,,,
b28d0808-2201-4063-9be9-4f5dc3aa39e4,,Gereza,,-1.945338,30.054605,,,,,,,
a0422739-d59b-4333-bb44-a93aa27c465c,,Gakinjiro,,-1.948840,30.056436,,,,,,,
fbc7e086-352b-4fee-b088-4c07bfb0ae8e,,Kwa Gasasira,,-1.952297,30.057395,,,,,,,
f1458d8c-e996-427d-82e7-5f8182f8ae5b,,EPA,,-1.955581,30.058148,,,,,,,
b8a9adc1-e301-4348-8904-4caa04d00394,,Kumurenge,,-1.956579,30.058397,,,,,,,
e85c69ca-8ff1-4b5a-8504-764200cd4684,,Gitega,,-1.959631,30.059352,,,,,,,
b36a9523-6159-422d-97e8-6661518c6ea6,,Onatracom,,-1.963984,30.059548,,,,,,,
200c2d4f-4c6b-434b-9a5b-ecf19a170bea,,Kuri mirongine,,-1.968353,30.057900,,,,,,,
b1a93688-ded3-4dbc-b4b1-47e6e3114693,,Karama Terminal,,-1.965551,30.027013,,,,,,,
65f44bb8-7ccb-48a6-a318-c5409f2f225d,,Jabana,,-1.882078,30.076415,,,,,,,
02bf866b-27a1-4bb9-b09d-70bd7ab0b39d,,Jabana B,,-1.882405,30.076112,,,,,,,
6c06176a-0be8-45aa-b08d-a37b9482eeb4,,Rafiki,,-1.971310,30.056397,,,,,,,
1cee965c-9bed-49f4-beef-fe345912f90f,,Cosmos,,-1.974593,30.053980,,,,,,,
6352d104-e6b1-458a-bd19-3536bcf72b69,,ERP,,-1.977473,30.050471,,,,,,,
899b9440-80a2-491d-a0bc-e38f4535e47b,,Kumurenge,,-1.940243,30.048469,,,,,,,
de7fb2d9-8653-4e96-ba77-1d020a557fa7,,Kwa Muganga,,-1.947365,30.049424,,,,,,,
3497e71d-ce63-46ef-a12b-b99b0806afc7,,Kiosk,,-1.949307,30.050370,,,,,,,
054164f4-778b-4619-98c7-b34b69da0892,,Kumurenge,,-1.952103,30.051994,,,,,,,
e905993a-6cbb-4aa8-974d-683313f88749,,Kuntaraga,,-1.959208,30.054612,,,,,,,
45aaf2bc-1031-413c-9b94-ec99994f85fb,,Caffè De Cercle,,-1.961885,30.055383,,,,,,,
ac790483-c996-4fd7-ad48-37b16e87c6a3,,Kugasoko,,-1.965145,30.054644,,,,,,,
bf069b80-af7c-447b-8929-28a4ea80dd5b,,Caffè,,-1.968407,30.052724,,,,,,,
9be8ad23-8ae8-410a-9e6b-576f4ea21386,,Contineri,,-1.969659,30.049729,,,,,,,
91fcc57c-5201-4915-8671-80ef57a01b9c,,Karabaye,,-1.970729,30.048166,,,,,,,
868ba9cc-0805-46fe-beab-a497d7927172,,Green Corner,,-1.972685,30.047970,,,,,,,
42c01872-5f42-4d7e-9fe7-de61b5986763,,Tapis Rouge,,-1.974120,30.047746,,,,,,,
1cd9808d-6852-4f67-9b68-70cda2baea9c,,ERP Terminal,,-1.977247,30.050618,,,,,,,
0753babe-e994-43c8-8375-c61ddce88e36,,Rwarutabura,,-1.985564,30.048879,,,,,,,
1a2b6069-cd4d-41cb-b845-6ba79fe6eb20,,Mugihanga,,-1.989352,30.044704,,,,,,,
05f19b2d-c4ae-4237-b946-21d2ad9a98b0,,Mukanogo,,-1.991617,30.048921,,,,,,,
82a52511-c8b6-430a-b76c-12c1b1b291e5,,Mumiduha,,-1.996482,30.050098,,,,,,,
a9c37bb2-4f01-4688-87a2-6806e821248c,,Kwa Kayitani,,-2.000399,30.044866,,,,,,,
f82e4591-d8ed-4e3d-89f3-df4f6aacdae2,,Nyarufunzo,,-2.008502,30.043683,,,,,,,
64316414-0b54-4db3-9d96-56bcfdb57354,,Nyarufunzo 2,,-2.016749,30.033562,,,,,,,
8bc5469c-5311-4c1a-b185-c18be80033fd,,Butamwa,,-2.019681,30.030516,,,,,,,
7d570b74-829d-4849-8ba3-738ae5f12164,,Rugendabari,,-2.022675,30.029085,,,,,,,
a915bade-2844-4713-b8cf-fc640865025c,,Kumurenge,,-2.022813,30.024536,,,,,,,
ccd9a78e-9cfe-4da6-9025-9d5d36e9d6b4,,Nyarubande,,-2.027104,30.024871,,,,,,,
09a9e374-34de-4aa3-bb1e-6b5246c787e3,,Mageragera Terminal,,-2.028591,30.024865,,,,,,,
8c13bfe6-df7e-43fe-af62-4f4d307ae451,,Kumudugudu B,,-1.963159,30.020703,,,,,,,
0d14771a-a3c9-49c2-a2ff-430daef4358f,,Bwiza B,,-1.965279,30.026679,,,,,,,
ac6e2ab4-f0d9-412d-8050-51f277e1aca0,,Kuri Skol B,,-1.970632,30.027504,,,,,,,
24f27796-222c-4141-9359-3cfc6943bddd,,Mount Kigali 2,,-1.975002,30.030819,,,,,,,
96f6cd3e-c290-49d8-b2fe-d687e2295d39,,Mount Kigali 1,,-1.979358,30.036901,,,,,,,
924fac9a-104d-43d1-9b7e-cf05a48bf0d7,,Ryanyuma /Nyamirambo bus terminal,,-1.980121,30.041981,,,,,,,
94e11d02-b55f-483b-8c3f-a7e3707eaf92,,Mukabuga B,,-1.926883,30.099370,,,,,,,
c59c6591-14f7-4b87-b85d-bdf95eefef53,,Mama Sportif B,,-1.931758,30.086534,,,,,,,
9acf26ef-da95-464a-979d-ec61726d9034,,Utexrwa B,,-1.927967,30.076028,,,,,,,
be02f060-00df-4d86-8634-844fe1b6c263,,Gakinjiro B,,-1.927796,30.070962,,,,,,,
5e059c1a-7e3f-45d6-8cf1-ba47cb88de19,,Kumurenge B,,-2.024773,30.024094,,,,,,,
537b5ea2-23f9-4eee-952c-a941977f04c3,,Butamwa B,,-2.023852,30.029024,,,,,,,
584ca73a-1480-457d-8dbc-de185a6df437,,Nyarufunza B,,-2.019716,30.030824,,,,,,,
05fe4c53-8080-4836-b8d8-513d5a59c2f1,,Kwa Kayitani B,,-2.010483,30.041682,,,,,,,
b09b656d-ae62-4786-91a1-e16089df2990,,Kabahima B,,-2.007710,30.044830,,,,,,,
2d4256ca-ca81-4c17-9239-edad2d677490,,Mumiduha B,,-1.996046,30.050376,,,,,,,
a90925fe-14bf-47e0-8818-a91aeb7563ec,,Mukanogo B,,-1.991858,30.048951,,,,,,,
ed63c204-e3da-4c24-ae21-c9e4eddd7b42,,Rwarutabura B,,-1.985929,30.047405,,,,,,,
d0f47a92-723e-48bb-aa0c-7bd1d99263fd,,Croix Rouge,,-1.927910,30.074220,,,,,,,
f02b6cbf-0ae5-4fc0-883a-077d3f9efbb7,,Golf,,-1.931247,30.091737,,,,,,,
0383e799-be8a-488d-8502-8c8aad456d03,,Mukabuga,,-1.926962,30.099399,,,,,,,
446aeb46-3cb0-4bdc-af08-3d1c4ef6ca10,,Kumavaze,,-1.924560,30.103486,,,,,,,
8b1ad884-057d-4dd1-94fe-7969626fb47a,,Akazu Kamazi,,-1.925094,30.109310,,,,,,,
d846cd62-a3a1-426e-8063-cc1431b75cd3,,Kurucyiko,,-1.931777,30.114629,,,,,,,
89847221-c68d-47d6-9406-9acf2d0ea9e0,,Kuricyiko B,,-1.978242,30.048121,,,,,,,
749c348e-2c2a-4583-be91-91d40d1622a0,,ERP B,,-1.977318,30.051242,,,,,,,
2931168a-347b-4096-a741-089865e3b1f7,,Saint Andre B,,-1.976249,30.052914,,,,,,,
ba138e6e-7ddf-4831-93b7-b5b56d72759b,,Kubadive B,,-1.970670,30.056926,,,,,,,
67f2024c-55a1-4b8e-a4ae-808e2c4c70ca,,Kuri Mirongwine B,,-1.968399,30.057965,,,,,,,
9a6633fa-0921-47e0-9086-79b2b29e6f2c,,Onatracom B,,-1.963458,30.060255,,,,,,,
8a64fcdd-0454-4fd6-ac9f-53fc4a275f64,,Kwa Gasasira B,,-1.952250,30.057501,,,,,,,
9490a89f-4117-4ba7-b06e-008b15e3b5d4,,Gereza B,,-1.945209,30.054770,,,,,,,
2d59d558-f829-4ed7-9eda-22b15ea41a27,,Ryanyuma,,-1.980147,30.041574,,,,,,,
83a2d09b-21c5-48cd-b675-7d6a0f6af89a,,Mount Kigali,,-1.978988,30.036910,,,,,,,
dbd9b469-cc54-4818-9f69-08837487eed6,,Mount Kigali 2,,-1.974628,30.030463,,,,,,,
e8f3c2e5-5a01-4a1a-9e19-df1c27d4b915,,Kuri skol,,-1.969724,30.027895,,,,,,,
a4324f59-47bf-47f9-9298-672e9b4088a3,,Kubwiza,,-1.965652,30.027425,,,,,,,
867572aa-f6d0-4144-bda3-c5572a8f1047,,Kumudugudu,,-1.963407,30.021650,,,,,,,
231597fc-2294-473b-a65b-f41c15288fb2,,Kwa ndimbati,,-1.960785,30.012238,,,,,,,
ee98375f-639e-4ddd-ae4d-fcd5230c2df2,,Tapis Rouge B,,-1.977431,30.047183,,,,,,,
439a132f-1519-4f8d-b04d-956afa7acf17,,Green Corner B,,-1.973995,30.048444,,,,,,,
2f38072b-9eeb-4cf8-9a7c-7b856ee6fba0,,Kugasoko B,,-1.969033,30.051606,,,,,,,
3709bd9c-4497-4b91-a0c3-71292d3b091f,,Caffè De Cercle B,,-1.966750,30.053793,,,,,,,
857072f4-c3eb-4722-8507-264bb3a286e8,,Caffè B,,-1.970147,30.049226,,,,,,,
d129c326-18ae-402b-a1b3-6feb9e310294,,Karama bus terminal B,,-1.962390,30.016453,,,,,,,
330b8168-920d-499b-9368-fa1103f05fb8,,Kuri Station B,,-1.955402,30.053431,,,,,,,
ddb60c0b-d470-4afc-bb55-5ea1122daff3,,Kumurenge B,,-1.951888,30.051952,,,,,,,
243a8be1-9443-4f22-8a46-1e429f55aee6,,Kiosk B,,-1.948581,30.050109,,,,,,,
cc921a7f-ed63-4915-b5a1-dc05576fe3d3,,Kwa Muganga B,,-1.946498,30.049149,,,,,,,
73e9558a-a866-4378-aa90-242498069da4,,Kumashyira Hamwe B,,-1.941288,30.046273,,,,,,,
436125ab-5479-4ce7-808b-a93da5c5eb4e,,Bishenyi terminal,,-1.980385,29.980149,,,,,,,
stcy,,Caffe de Cercle,,-1.961562,30.055276,,,,,,,
df67a932-f2d4-4d1d-b6a3-a63e2f570c17,,Kwa Kaddaffi,,-1.978428,30.047041,,,,,,,
965b9f74-6aa5-40ea-b4cc-8d8b8ae4fdfa,,Kwa Mutwe B,,-1.963246,30.055577,,,,,,,
b0bd8fc1-7331-49b7-bd13-8d8e1f47e303,,Kwisoko B,,-1.959276,30.054714,,,,,,,
eftv,,Kibagabaga B,,-1.923275,30.105459,,,,,,,
c6ceb08b-699d-42d9-89f1-54b3bb13d929,,Kibagabaga,,-1.923525,30.105230,,,,,,,
wmsh,,Karekare B,,-1.974000,30.060364,,,,,,,
b2580c67-aa94-466d-aaa7-c48a617daacf,,Muyange Terminal,,-2.003441,30.126844,,,,,,,
6z3x,,Kikibanza 1,,-1.917380,30.056402,,,,,,,
i36t,,New Stop,,-1.886290,30.088579,,,,,,,
w53a,,Police,,-1.932325,30.072373,,,,,,,
33b4c577-adc0-4ab4-a30a-f89b9326d8aa,,Kuba des amis B,,-1.988467,30.100909,,,,,,,
354338a5-faee-40b2-8f6c-4911c151f669,,Batsinda B,,-1.906995,30.080814,,,,,,,
467a96e9-d75f-467e-973c-9eb7eb6cf60a,,Batsinda Bus Terminal,,-1.906775,30.080270,,,0,,,,
